{
  "type": "FeatureCollection",
  "name": "lodging",
  "features": [
    {
      "type": "Feature",
      "properties": {
        "name": "ibis Styles Hotel",
        "address": "Avenida Duque de Caxias, 1538",
        "phone": "+55 91 3182-3700",
        "website": "https://all.accor.com/hotel/B9K6/index.en.shtml"
      },
      "geometry": { "type": "Point", "coordinates": [-48.4579383, -1.4246265] }
    },
    {
      "type": "Feature",
      "properties": {
        "name": "Rede Andrade Hotel",
        "address": "Travessa Alferes Costa, 2716",
        "phone": "+55 91 3355-7372",
        "website": "http://www.hotelhangar.com.br"
      },
      "geometry": { "type": "Point", "coordinates": [-48.457803, -1.42517] }
    },
    {
      "type": "Feature",
      "properties": {
        "name": "Hangar House Hostel",
        "address": "Avenida Duque de Caxias, 1384",
        "phone": "+55 91 98540-3441",
        "website": "https://hangar-house.hoteis-nortedobrasil.com/en/"
      },
      "geometry": { "type": "Point", "coordinates": [-48.45935, -1.42665] }
    },
    {
      "type": "Feature",
      "properties": {
        "name": "Bangalô Belém",
        "address": "Passagem Lindolfo Collor, 118",
        "phone": "+55 91 3038-7782",
        "website": "https://bangalobelem.ueniweb.com/"
      },
      "geometry": { "type": "Point", "coordinates": [-48.453377, -1.430770] }
    },
    {
      "type": "Feature",
      "properties": {
        "name": "Hotel Sagres",
        "address": "Av. Gov. José Malcher, N° 2927",
        "phone": "+55 (91) 4005-0005",
        "website": "https://www.hotelsagres.com/"
      },
      "geometry": { "type": "Point", "coordinates": [-48.467733, -1.448039] }
    },
    {
      "type": "Feature",
      "properties": {
        "name": "Hotel Ipê",
        "address": "Av. Gov. José Malcher, 2953",
        "phone": "+55 91 3204-4100",
        "website": "https://ipe-belem.belemhotelsweb.com/en/"
      },
      "geometry": { "type": "Point", "coordinates": [-48.467225, -1.448200] }
    },
    {
      "type": "Feature",
      "properties": {
        "name": "Hotel Danúbio",
        "address": "Tv. Primeira de Queluz, 63",
        "phone": "+55 91 3228-2670",
        "website": "https://hotel-danubio.hoteis-nortedobrasil.com/en/"
      },
      "geometry": { "type": "Point", "coordinates": [-48.465117, -1.448702] }
    },
    {
      "type": "Feature",
      "properties": {
        "name": "ibis budget Belém",
        "address": "Av. José Bonifácio, 244",
        "phone": "+55 91 3202-7600",
        "website": "https://all.accor.com/lien_externe.svlt?goto=fiche_hotel&code_hotel=5624"
      },
      "geometry": { "type": "Point", "coordinates": [-48.469573, -1.448912] }
    }
  ]
}
